[
  {
    "area": "関東",
    "clinics": [
      {
        "name": "新宿院",
        "hours": "10:00~20:00",
        "closed": "不定休・年末年始",
        "address": "東京都新宿区西新宿7-10-7 加賀谷ビル7階",
        "stations": "都営地下鉄大江戸線 新宿西口駅 D5出口より徒歩2分\n西武新宿線 西武新宿駅 徒歩4分\nJR 新宿駅 西口より徒歩5分"
      },
      {
        "name": "新宿御苑院",
        "hours": "10:00~20:00",
        "closed": "不定休・年末年始",
        "address": "東京都新宿区新宿2-3-12 光和ビル2階",
        "stations": "東京メトロ丸ノ内線 新宿御苑駅 徒歩3分\n都営地下鉄新宿線 新宿三丁目駅 徒歩5分"
      },
      {
        "name": "池袋院",
        "hours": "10:00~20:00",
        "closed": "不定休・年末年始",
        "address": "東京都豊島区東池袋1-21-13 aune池袋7階",
        "stations": "JR「池袋駅」 東口より徒歩6分"
      },
      {
        "name": "横浜院",
        "hours": "10:00~20:00",
        "closed": "不定休・年末年始",
        "address": "神奈川県横浜市西区北幸2丁目13-20 第7NYビル4階",
        "stations": "市営地下鉄「横浜駅」9番出口より徒歩6分\nJR「横浜駅」中央北改札出口より徒歩11分"
      },
      {
        "name": "川崎院",
        "hours": "9:00～20:00",
        "closed": "不定休・年末年始",
        "address": "神奈川県川崎市川崎区駅前本町5-1 美光ビル4階",
        "stations": "JR「川崎」駅より徒歩1分\n京急「川崎」駅より徒歩3分"
      },
      {
        "name": "大宮院",
        "hours": "平日：11:00〜20:00\n土日祝：10:00〜19:00",
        "closed": "不定休・年末年始",
        "address": "埼玉県さいたま市大宮区宮町1-40　ニコニコ堂大宮本店ビル8階",
        "stations": "JR「大宮駅」より徒歩3分"
      },
      {
        "name": "錦糸町院",
        "hours": "平日：10:00〜20:00\n日祝：10:00〜19:00",
        "closed": "不定休・年末年始",
        "address": "東京都墨田区江東橋4‐25‐7 JUスカイタウンKINSHICHOU6階",
        "stations": "JJR総武線「錦糸町駅」より徒歩4分"
      },
      {
        "name": "吉祥寺院",
        "hours": "平日：10:00〜20:00\n日祝：10:00〜19:00",
        "closed": "不定休・年末年始",
        "address": "東京都武蔵野市吉祥寺本町1-31-12 第Ⅱ大栄ビル4階",
        "stations": "JR「吉祥寺駅」より徒歩2分"
      }
    ]
  },
  {
    "area": "東北",
    "clinics": [
      {
        "name": "福島院",
        "hours": "9:00〜20:00",
        "closed": "不定休・年末年始",
        "address": "福島県郡山市中町11-1 セントラルアベニュー郡山Ⅰビル5階",
        "stations": "JR東北本線「郡山」駅より徒歩7分"
      }
    ]
  },
  {
    "area": "北陸",
    "clinics": [
      {
        "name": "金沢院",
        "hours": "10:00-20:00",
        "closed": "不定休・年末年始",
        "address": "石川県金沢市此花町３−２ ライブ１ビル 2F",
        "stations": "JR「金沢駅」兼六園口（東口）より徒歩3分"
      }
    ]
  },
  {
    "area": "中部",
    "clinics": [
      {
        "name": "名古屋院",
        "hours": "9:00〜20:00",
        "closed": "不定休・年末年始",
        "address": "愛知県名古屋市中村区名駅3-25-3大橋ビルディング5階",
        "stations": "「名古屋駅」より徒歩4分\n桜通線「国際センター駅」徒歩4分"
      }
    ]
  },
  {
    "area": "関西",
    "clinics": [
      {
        "name": "心斎橋院",
        "hours": "10:00~20:00",
        "closed": "不定休・年末年始",
        "address": "大阪府大阪市中央区東心斎橋1丁目19-6 東山ビル3F",
        "stations": "御堂筋線 心斎橋駅 徒歩5分"
      }
    ]
  },
  {
    "area": "中国・四国",
    "clinics": [
      {
        "name": "広島院",
        "hours": "10:00~20:00",
        "closed": "不定休・年末年始",
        "address": "広島県広島市中区紙屋町1丁目1-1東和ビル6階",
        "stations": "紙屋町(紙屋町東電停前) 徒歩2分"
      }
    ]
  },
  {
    "area": "九州",
    "clinics": [
      {
        "name": "天神院",
        "hours": "10:00~20:00",
        "closed": "不定休・年末年始",
        "address": "福岡県福岡市中央区天神1-2-12 メットライフ天神ビル4F",
        "stations": "市営地下鉄 天神南駅 徒歩1分\n西鉄 西鉄福岡(天神)駅 徒歩3分"
      }
    ]
  }
]
